Fix,size 1701,batch (139843634578768),frames [(0->1700) ]
Fix,size 1701,batch (139843651853904),frames [(1701->3401) ]
Free,size 1701,batch (139843634578768),frames [(0->1700) ]
Fix,size 1701,batch (139843642935184),frames [(3402->5102) ]
Free,size 1701,batch (139843651853904),frames [(1701->3401) ]
Fix,size 1701,batch (139843641916496),frames [(5103->6803) ]
Free,size 1701,batch (139843642935184),frames [(3402->5102) ]
Fix,size 1701,batch (139843641279952),frames [(6804->8504) ]
Free,size 1701,batch (139843641916496),frames [(5103->6803) ]
Fix,size 1701,batch (139843641048656),frames [(8505->10205) ]
Free,size 1701,batch (139843641279952),frames [(6804->8504) ]
Fix,size 1701,batch (139843641940624),frames [(10206->11906) ]
Free,size 1701,batch (139843641048656),frames [(8505->10205) ]
Fix,size 1701,batch (139843641253008),frames [(11907->13607) ]
Free,size 1701,batch (139843641940624),frames [(10206->11906) ]
Fix,size 1701,batch (139843953392912),frames [(13608->15308) ]
Free,size 1701,batch (139843641253008),frames [(11907->13607) ]
Fix,size 1701,batch (139843641344080),frames [(15309->17009) ]
Free,size 1701,batch (139843953392912),frames [(13608->15308) ]
Fix,size 1701,batch (139838239035344),frames [(17010->18710) ]
Free,size 1701,batch (139843641344080),frames [(15309->17009) ]
Fix,size 1701,batch (139843641000528),frames [(18711->20411) ]
Free,size 1701,batch (139838239035344),frames [(17010->18710) ]
Fix,size 1701,batch (139843642709648),frames [(20412->22112) ]
Free,size 1701,batch (139843641000528),frames [(18711->20411) ]
Fix,size 1701,batch (139843641876048),frames [(22113->23813) ]
Free,size 1701,batch (139843642709648),frames [(20412->22112) ]
Fix,size 1701,batch (139843641511120),frames [(23814->25514) ]
Free,size 1701,batch (139843641876048),frames [(22113->23813) ]
Fix,size 1701,batch (139843641217744),frames [(25515->27215) ]
Free,size 1701,batch (139843641511120),frames [(23814->25514) ]
Fix,size 1701,batch (139843634470352),frames [(27216->28916) ]
Free,size 1701,batch (139843641217744),frames [(25515->27215) ]
Fix,size 1701,batch (139843641424464),frames [(28917->30617) ]
Free,size 1701,batch (139843634470352),frames [(27216->28916) ]
Fix,size 1701,batch (139843641680144),frames [(30618->32318) ]
Free,size 1701,batch (139843641424464),frames [(28917->30617) ]
Fix,size 1701,batch (139843651654992),frames [(32319->34019) ]
Free,size 1701,batch (139843641680144),frames [(30618->32318) ]
Fix,size 1701,batch (139843641705104),frames [(34020->35720) ]
Free,size 1701,batch (139843651654992),frames [(32319->34019) ]
Fix,size 1701,batch (139843641679440),frames [(35721->37421) ]
Free,size 1701,batch (139843641705104),frames [(34020->35720) ]
Fix,size 1701,batch (139843634623824),frames [(37422->39122) ]
Free,size 1701,batch (139843641679440),frames [(35721->37421) ]
Fix,size 1701,batch (139845553218704),frames [(39123->40823) ]
Free,size 1701,batch (139843634623824),frames [(37422->39122) ]
Fix,size 1701,batch (139838280888144),frames [(40824->42524) ]
Free,size 1701,batch (139845553218704),frames [(39123->40823) ]
Fix,size 1701,batch (139843641858192),frames [(42525->44225) ]
Free,size 1701,batch (139838280888144),frames [(40824->42524) ]
Fix,size 1701,batch (139843641397456),frames [(44226->45926) ]
Free,size 1701,batch (139843641858192),frames [(42525->44225) ]
Fix,size 1701,batch (139843600567056),frames [(45927->47627) ]
Free,size 1701,batch (139843641397456),frames [(44226->45926) ]
Fix,size 1701,batch (139843600567568),frames [(47628->49328) ]
Free,size 1701,batch (139843600567056),frames [(45927->47627) ]
Fix,size 1701,batch (139843600566672),frames [(49329->51029) ]
Free,size 1701,batch (139843600567568),frames [(47628->49328) ]
Fix,size 1701,batch (139843600568208),frames [(51030->52730) ]
Free,size 1701,batch (139843600566672),frames [(49329->51029) ]
Fix,size 1701,batch (139839041253840),frames [(52731->54431) ]
Free,size 1701,batch (139843600568208),frames [(51030->52730) ]
Fix,size 1701,batch (139843600568208),frames [(54432->56132) ]
Free,size 1701,batch (139839041253840),frames [(52731->54431) ]
Fix,size 1701,batch (139842517598992),frames [(56133->57833) ]
Free,size 1701,batch (139843600568208),frames [(54432->56132) ]
Fix,size 1701,batch (139838283730320),frames [(57834->59534) ]
Free,size 1701,batch (139842517598992),frames [(56133->57833) ]
Fix,size 1701,batch (139839049639632),frames [(59535->61235) ]
Free,size 1701,batch (139838283730320),frames [(57834->59534) ]
Fix,size 1701,batch (139838283730064),frames [(61236->62936) ]
Free,size 1701,batch (139839049639632),frames [(59535->61235) ]
Fix,size 1701,batch (139839058121040),frames [(62937->64637) ]
Free,size 1701,batch (139838283730064),frames [(61236->62936) ]
Fix,size 1701,batch (139839060214096),frames [(64638->66338) ]
Free,size 1701,batch (139839058121040),frames [(62937->64637) ]
Fix,size 1701,batch (139839059738768),frames [(66339->68039) ]
Free,size 1701,batch (139839060214096),frames [(64638->66338) ]
Fix,size 1701,batch (139839059738960),frames [(68040->69740) ]
Free,size 1701,batch (139839059738768),frames [(66339->68039) ]
Fix,size 1701,batch (139839059739216),frames [(69741->71441) ]
Free,size 1701,batch (139839059738960),frames [(68040->69740) ]
Fix,size 1701,batch (139842582943376),frames [(71442->73142) ]
Free,size 1701,batch (139839059739216),frames [(69741->71441) ]
Fix,size 1701,batch (139842582942864),frames [(73143->74843) ]
Free,size 1701,batch (139842582943376),frames [(71442->73142) ]
Fix,size 1701,batch (139842582943056),frames [(74844->76544) ]
Free,size 1701,batch (139842582942864),frames [(73143->74843) ]
Fix,size 1701,batch (139842582942736),frames [(76545->78245) ]
Free,size 1701,batch (139842582943056),frames [(74844->76544) ]
Fix,size 1701,batch (139842582943120),frames [(78246->79946) ]
Free,size 1701,batch (139842582942736),frames [(76545->78245) ]
Fix,size 1701,batch (139842582942352),frames [(79947->81647) ]
Free,size 1701,batch (139842582943120),frames [(78246->79946) ]
Fix,size 1701,batch (139838255968336),frames [(81648->83348) ]
Free,size 1701,batch (139842582942352),frames [(79947->81647) ]
Fix,size 1701,batch (139842519941648),frames [(83349->85049) ]
Free,size 1701,batch (139838255968336),frames [(81648->83348) ]
Fix,size 1701,batch (139838255971152),frames [(85050->86750) ]
Free,size 1701,batch (139842519941648),frames [(83349->85049) ]
Fix,size 1701,batch (139838230279184),frames [(86751->88451) ]
Free,size 1701,batch (139838255971152),frames [(85050->86750) ]
Fix,size 1701,batch (139838230279952),frames [(88452->90152) ]
Free,size 1701,batch (139838230279184),frames [(86751->88451) ]
Fix,size 1701,batch (139837686734480),frames [(90153->91853) ]
Free,size 1701,batch (139838230279952),frames [(88452->90152) ]
Fix,size 1701,batch (139838230279568),frames [(91854->93554) ]
Free,size 1701,batch (139837686734480),frames [(90153->91853) ]
Fix,size 1701,batch (139838232298000),frames [(93555->95255) ]
Free,size 1701,batch (139838230279568),frames [(91854->93554) ]
Fix,size 1701,batch (139838232446544),frames [(95256->96956) ]
Free,size 1701,batch (139838232298000),frames [(93555->95255) ]
Fix,size 1701,batch (139842513895568),frames [(96957->98657) ]
Free,size 1701,batch (139838232446544),frames [(95256->96956) ]
Fix,size 1701,batch (139838239263056),frames [(98658->100358) ]
Free,size 1701,batch (139842513895568),frames [(96957->98657) ]
Fix,size 1701,batch (139839059878800),frames [(100359->102059) ]
Free,size 1701,batch (139838239263056),frames [(98658->100358) ]
Fix,size 1701,batch (139839059878608),frames [(102060->103760) ]
Free,size 1701,batch (139839059878800),frames [(100359->102059) ]
Fix,size 1701,batch (139839059878736),frames [(103761->105461) ]
Free,size 1701,batch (139839059878608),frames [(102060->103760) ]
Fix,size 1701,batch (139838233594960),frames [(105462->107162) ]
Free,size 1701,batch (139839059878736),frames [(103761->105461) ]
Fix,size 1701,batch (139839059671120),frames [(107163->108863) ]
Free,size 1701,batch (139838233594960),frames [(105462->107162) ]
Fix,size 1701,batch (139842522037776),frames [(108864->110564) ]
Free,size 1701,batch (139839059671120),frames [(107163->108863) ]
Fix,size 1701,batch (139839059641104),frames [(110565->112265) ]
Free,size 1701,batch (139842522037776),frames [(108864->110564) ]
Fix,size 1701,batch (139839059642064),frames [(112266->113966) ]
Free,size 1701,batch (139839059641104),frames [(110565->112265) ]
Fix,size 1701,batch (139838243438160),frames [(113967->115667) ]
Free,size 1701,batch (139839059642064),frames [(112266->113966) ]
Fix,size 1701,batch (139842522605584),frames [(115668->117368) ]
Free,size 1701,batch (139838243438160),frames [(113967->115667) ]
Fix,size 1701,batch (139842522038160),frames [(117369->119069) ]
Free,size 1701,batch (139842522605584),frames [(115668->117368) ]
Fix,size 1701,batch (139842522475472),frames [(119070->120770) ]
Free,size 1701,batch (139842522038160),frames [(117369->119069) ]
Fix,size 1701,batch (139839059956368),frames [(120771->122471) ]
Free,size 1701,batch (139842522475472),frames [(119070->120770) ]
Fix,size 1701,batch (139838244520528),frames [(122472->124172) ]
Free,size 1701,batch (139839059956368),frames [(120771->122471) ]
Fix,size 1701,batch (139837683021264),frames [(124173->125873) ]
Free,size 1701,batch (139838244520528),frames [(122472->124172) ]
Fix,size 1701,batch (139838275347408),frames [(125874->127574) ]
Free,size 1701,batch (139837683021264),frames [(124173->125873) ]
Fix,size 1701,batch (139838244520720),frames [(127575->129275) ]
Free,size 1701,batch (139838275347408),frames [(125874->127574) ]
Fix,size 1701,batch (139838292160656),frames [(129276->130976) ]
Free,size 1701,batch (139838244520720),frames [(127575->129275) ]
Fix,size 1701,batch (139838292160848),frames [(130977->132677) ]
Free,size 1701,batch (139838292160656),frames [(129276->130976) ]
Fix,size 1701,batch (139838292161104),frames [(132678->134378) ]
Free,size 1701,batch (139838292160848),frames [(130977->132677) ]
Fix,size 1701,batch (139838292161040),frames [(134379->136079) ]
Free,size 1701,batch (139838292161104),frames [(132678->134378) ]
Fix,size 1701,batch (139838243376848),frames [(136080->137780) ]
Free,size 1701,batch (139838292161040),frames [(134379->136079) ]
Fix,size 1701,batch (139839059958416),frames [(137781->139481) ]
Free,size 1701,batch (139838243376848),frames [(136080->137780) ]
Fix,size 1701,batch (139839059959504),frames [(139482->141182) ]
Free,size 1701,batch (139839059958416),frames [(137781->139481) ]
Fix,size 1701,batch (139842582495312),frames [(141183->142883) ]
Free,size 1701,batch (139839059959504),frames [(139482->141182) ]
Fix,size 1701,batch (139837679812752),frames [(142884->144584) ]
Free,size 1701,batch (139842582495312),frames [(141183->142883) ]
Fix,size 1701,batch (139838239263568),frames [(144585->146285) ]
Free,size 1701,batch (139837679812752),frames [(142884->144584) ]
Fix,size 1701,batch (139838238016016),frames [(146286->147986) ]
Free,size 1701,batch (139838239263568),frames [(144585->146285) ]
Fix,size 1701,batch (139842582496656),frames [(147987->149687) ]
Free,size 1701,batch (139838238016016),frames [(146286->147986) ]
Fix,size 1701,batch (139842582496976),frames [(149688->151388) ]
Free,size 1701,batch (139842582496656),frames [(147987->149687) ]
Fix,size 1701,batch (139838242178832),frames [(151389->153089) ]
Free,size 1701,batch (139842582496976),frames [(149688->151388) ]
Fix,size 1701,batch (139842525413968),frames [(153090->154790) ]
Free,size 1701,batch (139838242178832),frames [(151389->153089) ]
Fix,size 1701,batch (139838239031376),frames [(154791->156491) ]
Free,size 1701,batch (139842525413968),frames [(153090->154790) ]
Fix,size 1701,batch (139838239031568),frames [(156492->158192) ]
Free,size 1701,batch (139838239031376),frames [(154791->156491) ]
Fix,size 1701,batch (139838239031824),frames [(158193->159893) ]
Free,size 1701,batch (139838239031568),frames [(156492->158192) ]
Fix,size 1701,batch (139838239031760),frames [(159894->161594) ]
Free,size 1701,batch (139838239031824),frames [(158193->159893) ]
Fix,size 1701,batch (139838239032016),frames [(161595->163295) ]
Free,size 1701,batch (139838239031760),frames [(159894->161594) ]
Fix,size 1701,batch (139838239032208),frames [(163296->164996) ]
Free,size 1701,batch (139838239032016),frames [(161595->163295) ]
Fix,size 1701,batch (139838255800464),frames [(164997->166697) ]
Free,size 1701,batch (139838239032208),frames [(163296->164996) ]
Fix,size 1701,batch (139838255800656),frames [(166698->168398) ]
Free,size 1701,batch (139838255800464),frames [(164997->166697) ]
Fix,size 1701,batch (139842526434256),frames [(168399->170099) ]
Free,size 1701,batch (139838255800656),frames [(166698->168398) ]
Fix,size 1701,batch (139838250115472),frames [(170100->171800) ]
Free,size 1701,batch (139842526434256),frames [(168399->170099) ]
Fix,size 1701,batch (139838250079632),frames [(171801->173501) ]
Free,size 1701,batch (139838250115472),frames [(170100->171800) ]
Fix,size 1701,batch (139839059325136),frames [(173502->175202) ]
Free,size 1701,batch (139838250079632),frames [(171801->173501) ]
Fix,size 1701,batch (139839059325072),frames [(175203->176903) ]
Free,size 1701,batch (139839059325136),frames [(173502->175202) ]
Fix,size 1701,batch (139839059325328),frames [(176904->178604) ]
Free,size 1701,batch (139839059325072),frames [(175203->176903) ]
Fix,size 1701,batch (139838258855632),frames [(178605->180305) ]
Free,size 1701,batch (139839059325328),frames [(176904->178604) ]
Fix,size 1701,batch (139843641250640),frames [(180306->182006) ]
Free,size 1701,batch (139838258855632),frames [(178605->180305) ]
Fix,size 1701,batch (139838251858192),frames [(182007->183707) ]
Free,size 1701,batch (139843641250640),frames [(180306->182006) ]
Fix,size 1701,batch (139838251858704),frames [(183708->185408) ]
Free,size 1701,batch (139838251858192),frames [(182007->183707) ]
Fix,size 1701,batch (139838251859280),frames [(185409->187109) ]
Free,size 1701,batch (139838251858704),frames [(183708->185408) ]
Fix,size 1701,batch (139839059288272),frames [(187110->188810) ]
Free,size 1701,batch (139838251859280),frames [(185409->187109) ]
Fix,size 1701,batch (139839059288208),frames [(188811->190511) ]
Free,size 1701,batch (139839059288272),frames [(187110->188810) ]
Fix,size 1701,batch (139839059327760),frames [(190512->192212) ]
Free,size 1701,batch (139839059288208),frames [(188811->190511) ]
Fix,size 1701,batch (139839059289040),frames [(192213->193913) ]
Free,size 1701,batch (139839059327760),frames [(190512->192212) ]
Fix,size 1701,batch (139838231371024),frames [(193914->195614) ]
Free,size 1701,batch (139839059289040),frames [(192213->193913) ]
Fix,size 1701,batch (139838254452048),frames [(195615->197315) ]
Free,size 1701,batch (139838231371024),frames [(193914->195614) ]
Fix,size 1701,batch (139837681465488),frames [(197316->199016) ]
Free,size 1701,batch (139838254452048),frames [(195615->197315) ]
Fix,size 1701,batch (139838239057232),frames [(199017->200717) ]
Free,size 1701,batch (139837681465488),frames [(197316->199016) ]
Fix,size 1701,batch (139839059288144),frames [(200718->202418) ]
Free,size 1701,batch (139838239057232),frames [(199017->200717) ]
Fix,size 1701,batch (139837681465488),frames [(202419->204119) ]
Free,size 1701,batch (139839059288144),frames [(200718->202418) ]
Fix,size 1701,batch (139838255956368),frames [(204120->205820) ]
Free,size 1701,batch (139837681465488),frames [(202419->204119) ]
Fix,size 1701,batch (139842529951184),frames [(205821->207521) ]
Free,size 1701,batch (139838255956368),frames [(204120->205820) ]
Fix,size 1701,batch (139838239056336),frames [(207522->209222) ]
Free,size 1701,batch (139842529951184),frames [(205821->207521) ]
Fix,size 1701,batch (139837679215824),frames [(209223->210923) ]
Free,size 1701,batch (139838239056336),frames [(207522->209222) ]
Fix,size 1701,batch (139837679214800),frames [(210924->212624) ]
Free,size 1701,batch (139837679215824),frames [(209223->210923) ]
Fix,size 1701,batch (139837679215056),frames [(212625->214325) ]
Free,size 1701,batch (139837679214800),frames [(210924->212624) ]
Fix,size 1701,batch (139838239056784),frames [(214326->216026) ]
Free,size 1701,batch (139837679215056),frames [(212625->214325) ]
Fix,size 1701,batch (139839059914896),frames [(216027->217727) ]
Free,size 1701,batch (139838239056784),frames [(214326->216026) ]
Fix,size 1701,batch (139839059915088),frames [(217728->219428) ]
Free,size 1701,batch (139839059914896),frames [(216027->217727) ]
Fix,size 1701,batch (139838260066896),frames [(219429->221129) ]
Free,size 1701,batch (139839059915088),frames [(217728->219428) ]
Fix,size 1701,batch (139842515177424),frames [(221130->222830) ]
Free,size 1701,batch (139838260066896),frames [(219429->221129) ]
Fix,size 1701,batch (139842515176976),frames [(222831->224531) ]
Free,size 1701,batch (139842515177424),frames [(221130->222830) ]
Fix,size 1701,batch (139838264266704),frames [(224532->226232) ]
Free,size 1701,batch (139842515176976),frames [(222831->224531) ]
Fix,size 1701,batch (139838264266640),frames [(226233->227933) ]
Free,size 1701,batch (139838264266704),frames [(224532->226232) ]
Fix,size 1701,batch (139843642571152),frames [(227934->229634) ]
Free,size 1701,batch (139838264266640),frames [(226233->227933) ]
Fix,size 1701,batch (139838264422672),frames [(229635->231335) ]
Free,size 1701,batch (139843642571152),frames [(227934->229634) ]
Fix,size 1701,batch (139838264422928),frames [(231336->233036) ]
Free,size 1701,batch (139838264422672),frames [(229635->231335) ]
Fix,size 1701,batch (139838266828304),frames [(233037->234737) ]
Free,size 1701,batch (139838264422928),frames [(231336->233036) ]
Fix,size 1701,batch (139838280887888),frames [(234738->236438) ]
Free,size 1701,batch (139838266828304),frames [(233037->234737) ]
Fix,size 1701,batch (139842532539024),frames [(236439->238139) ]
Free,size 1701,batch (139838280887888),frames [(234738->236438) ]
Fix,size 1701,batch (139838276999696),frames [(238140->239840) ]
Free,size 1701,batch (139842532539024),frames [(236439->238139) ]
Fix,size 1701,batch (139838276999952),frames [(239841->241541) ]
Free,size 1701,batch (139838276999696),frames [(238140->239840) ]
Fix,size 1701,batch (139837682727248),frames [(241542->243242) ]
Free,size 1701,batch (139838276999952),frames [(239841->241541) ]
Fix,size 1701,batch (139837682692496),frames [(243243->244943) ]
Free,size 1701,batch (139837682727248),frames [(241542->243242) ]
Fix,size 1701,batch (139842517327824),frames [(244944->246644) ]
Free,size 1701,batch (139837682692496),frames [(243243->244943) ]
Fix,size 1701,batch (139842517060240),frames [(246645->248345) ]
Free,size 1701,batch (139842517327824),frames [(244944->246644) ]
Fix,size 1701,batch (139838290532688),frames [(248346->250046) ]
Free,size 1701,batch (139842517060240),frames [(246645->248345) ]
Fix,size 1701,batch (139842533154320),frames [(250047->251747) ]
Free,size 1701,batch (139838290532688),frames [(248346->250046) ]
Fix,size 1701,batch (139839059915408),frames [(251748->253448) ]
Free,size 1701,batch (139842533154320),frames [(250047->251747) ]
Fix,size 1701,batch (139842533159696),frames [(253449->255149) ]
Free,size 1701,batch (139839059915408),frames [(251748->253448) ]
Fix,size 1701,batch (139837682692368),frames [(255150->256850) ]
Free,size 1701,batch (139842533159696),frames [(253449->255149) ]
Fix,size 1701,batch (139839055292752),frames [(256851->258551) ]
Free,size 1701,batch (139837682692368),frames [(255150->256850) ]
Fix,size 1701,batch (139837682632528),frames [(258552->260252) ]
Free,size 1701,batch (139839055292752),frames [(256851->258551) ]
Fix,size 1701,batch (139842532538384),frames [(260253->261953) ]
Free,size 1701,batch (139837682632528),frames [(258552->260252) ]
Fix,size 1701,batch (139842533936848),frames [(261954->263654) ]
Free,size 1701,batch (139842532538384),frames [(260253->261953) ]
Fix,size 1701,batch (139842534359952),frames [(263655->265355) ]
Free,size 1701,batch (139842533936848),frames [(261954->263654) ]
Fix,size 1701,batch (139839060263696),frames [(265356->267056) ]
Free,size 1701,batch (139842534359952),frames [(263655->265355) ]
Fix,size 1701,batch (139839058030416),frames [(267057->268757) ]
Free,size 1701,batch (139839060263696),frames [(265356->267056) ]
Fix,size 1701,batch (139839058121424),frames [(268758->270458) ]
Free,size 1701,batch (139839058030416),frames [(267057->268757) ]
Fix,size 1701,batch (139838283729296),frames [(270459->272159) ]
Free,size 1701,batch (139839058121424),frames [(268758->270458) ]
Fix,size 1701,batch (139838283729552),frames [(272160->273860) ]
Free,size 1701,batch (139838283729296),frames [(270459->272159) ]
Fix,size 1701,batch (139838283730576),frames [(273861->275561) ]
Free,size 1701,batch (139838283729552),frames [(272160->273860) ]
Fix,size 1701,batch (139838283729808),frames [(275562->277262) ]
Free,size 1701,batch (139838283730576),frames [(273861->275561) ]
Fix,size 1701,batch (139838283729360),frames [(277263->278963) ]
Free,size 1701,batch (139838283729808),frames [(275562->277262) ]
Fix,size 1701,batch (139842582894288),frames [(278964->280664) ]
Free,size 1701,batch (139838283729360),frames [(277263->278963) ]
Fix,size 1701,batch (139842541628816),frames [(280665->282365) ]
Free,size 1701,batch (139842582894288),frames [(278964->280664) ]
Fix,size 1701,batch (139842541629008),frames [(282366->284066) ]
Free,size 1701,batch (139842541628816),frames [(280665->282365) ]
Fix,size 1701,batch (139838250316624),frames [(284067->285767) ]
Free,size 1701,batch (139842541629008),frames [(282366->284066) ]
Fix,size 1701,batch (139837687305744),frames [(285768->287468) ]
Free,size 1701,batch (139838250316624),frames [(284067->285767) ]
Fix,size 1701,batch (139837687304784),frames [(287469->289169) ]
Free,size 1701,batch (139837687305744),frames [(285768->287468) ]
Fix,size 1701,batch (139838247577744),frames [(289170->290870) ]
Free,size 1701,batch (139837687304784),frames [(287469->289169) ]
Fix,size 1701,batch (139842542274128),frames [(290871->292571) ]
Free,size 1701,batch (139838247577744),frames [(289170->290870) ]
Fix,size 1701,batch (139839060265872),frames [(292572->294272) ]
Free,size 1701,batch (139842542274128),frames [(290871->292571) ]
Fix,size 1701,batch (139838267040528),frames [(294273->295973) ]
Free,size 1701,batch (139839060265872),frames [(292572->294272) ]
Fix,size 1701,batch (139842533639248),frames [(295974->297674) ]
Free,size 1701,batch (139838267040528),frames [(294273->295973) ]
Fix,size 1701,batch (139842579992080),frames [(297675->299375) ]
Free,size 1701,batch (139842533639248),frames [(295974->297674) ]
Fix,size 1701,batch (139842541628816),frames [(299376->301076) ]
Free,size 1701,batch (139842579992080),frames [(297675->299375) ]
Fix,size 1701,batch (139838244586320),frames [(301077->302777) ]
Free,size 1701,batch (139842541628816),frames [(299376->301076) ]
Fix,size 1701,batch (139842333171920),frames [(302778->304478) ]
Free,size 1701,batch (139838244586320),frames [(301077->302777) ]
Fix,size 1701,batch (139842579991952),frames [(304479->306179) ]
Free,size 1701,batch (139842333171920),frames [(302778->304478) ]
Fix,size 1701,batch (139842541629072),frames [(306180->307880) ]
Free,size 1701,batch (139842579991952),frames [(304479->306179) ]
Fix,size 1701,batch (139837688197840),frames [(307881->309581) ]
Free,size 1701,batch (139842541629072),frames [(306180->307880) ]
Fix,size 1701,batch (139839059739152),frames [(309582->311282) ]
Free,size 1701,batch (139837688197840),frames [(307881->309581) ]
Fix,size 1701,batch (139838268422224),frames [(311283->312983) ]
Free,size 1701,batch (139839059739152),frames [(309582->311282) ]
Fix,size 1701,batch (139842519168912),frames [(312984->314684) ]
Free,size 1701,batch (139838268422224),frames [(311283->312983) ]
Fix,size 1701,batch (139843464229968),frames [(314685->316385) ]
Free,size 1701,batch (139842519168912),frames [(312984->314684) ]
Fix,size 1701,batch (139843464501648),frames [(316386->318086) ]
Free,size 1701,batch (139843464229968),frames [(314685->316385) ]
Fix,size 1701,batch (139837686146192),frames [(318087->319787) ]
Free,size 1701,batch (139843464501648),frames [(316386->318086) ]
Fix,size 1701,batch (139837686146512),frames [(319788->321488) ]
Free,size 1701,batch (139837686146192),frames [(318087->319787) ]
Fix,size 1701,batch (139837686146192),frames [(321489->323189) ]
Free,size 1701,batch (139837686146512),frames [(319788->321488) ]
Fix,size 1701,batch (139842519435472),frames [(323190->324890) ]
Free,size 1701,batch (139837686146192),frames [(321489->323189) ]
Fix,size 1701,batch (139843465070160),frames [(324891->326591) ]
Free,size 1701,batch (139842519435472),frames [(323190->324890) ]
Fix,size 1701,batch (139842582945744),frames [(326592->328292) ]
Free,size 1701,batch (139843465070160),frames [(324891->326591) ]
Fix,size 1701,batch (139843465069776),frames [(328293->329993) ]
Free,size 1701,batch (139842582945744),frames [(326592->328292) ]
Fix,size 1701,batch (139837679767824),frames [(329994->331694) ]
Free,size 1701,batch (139843465069776),frames [(328293->329993) ]
Fix,size 1701,batch (139838232639696),frames [(331695->333395) ]
Free,size 1701,batch (139837679767824),frames [(329994->331694) ]
Fix,size 1701,batch (139838231203408),frames [(333396->335096) ]
Free,size 1701,batch (139838232639696),frames [(331695->333395) ]
Fix,size 1701,batch (139842680692432),frames [(335097->336797) ]
Free,size 1701,batch (139838231203408),frames [(333396->335096) ]
Fix,size 1701,batch (139837686734736),frames [(336798->338498) ]
Free,size 1701,batch (139842680692432),frames [(335097->336797) ]
Fix,size 1701,batch (139837686734288),frames [(338499->340199) ]
Free,size 1701,batch (139837686734736),frames [(336798->338498) ]
Fix,size 1701,batch (139837679769616),frames [(340200->341900) ]
Free,size 1701,batch (139837686734288),frames [(338499->340199) ]
Fix,size 1701,batch (139838234988176),frames [(341901->343601) ]
Free,size 1701,batch (139837679769616),frames [(340200->341900) ]
Fix,size 1701,batch (139837688472912),frames [(343602->345302) ]
Free,size 1701,batch (139838234988176),frames [(341901->343601) ]
Fix,size 1701,batch (139843471628368),frames [(345303->347003) ]
Free,size 1701,batch (139837688472912),frames [(343602->345302) ]
Fix,size 1701,batch (139837688473040),frames [(347004->348704) ]
Free,size 1701,batch (139843471628368),frames [(345303->347003) ]
Fix,size 1701,batch (139843471891536),frames [(348705->350405) ]
Free,size 1701,batch (139837688473040),frames [(347004->348704) ]
Fix,size 1701,batch (139838230134416),frames [(350406->352106) ]
Free,size 1701,batch (139843471891536),frames [(348705->350405) ]
Fix,size 1701,batch (139843471891664),frames [(352107->353807) ]
Free,size 1701,batch (139838230134416),frames [(350406->352106) ]
Fix,size 1701,batch (139837683946960),frames [(353808->355508) ]
Free,size 1701,batch (139843471891664),frames [(352107->353807) ]
Fix,size 1701,batch (139837683946576),frames [(355509->357209) ]
Free,size 1701,batch (139837683946960),frames [(353808->355508) ]
Fix,size 1701,batch (139837681838160),frames [(357210->358910) ]
Free,size 1701,batch (139837683946576),frames [(355509->357209) ]
Fix,size 1089,batch (139843634470224),frames [(358911->359999) ]
Free,size 1701,batch (139837681838160),frames [(357210->358910) ]
Free,size 1089,batch (139843634470224),frames [(358911->359999) ]
